{
  "2024": [
    {
      "1": [
        {
          "dia": 1,
          "dateShift": "a",
          "mes": "Enero",
          "pharmacies": [
            [
              {
                "id": "1",
                "name": "Armellini",
                "lat": -33.386941417345604,
                "lon": -60.1757641775202,
                "address": "Av. Central Malvinas Argentinas 3105",
                "tel": "03364462060"
              },
              {
                "id": "2",
                "name": "Cabrera",
                "lat": -33.33655176747358,
                "lon": -60.21076250473463,
                "address": "Av. Falcón 222",
                "tel": ""
              },
              {
                "id": "3",
                "name": "Diamante",
                "lat": -33.34041056512958,
                "lon": -60.230896722537636,
                "address": "Belgrano y Albarez",
                "tel": "03364426161"
              },
              {
                "id": "4",
                "name": "Furlan",
                "lat": -33.32788406441988,
                "lon": -60.224821148912916,
                "address": "9 de Julio 260",
                "tel": "03364435036"
              },
              {
                "id": "5",
                "name": "Gonzalez Pacin",
                "lat": -33.33341236133698,
                "lon": -60.21976489309024,
                "address": "Nacion 314",
                "tel": "03364425294"
              },
              {
                "id": "6",
                "name": "Hector Lopez",
                "lat": -33.34691310054558,
                "lon": -60.201602491240784,
                "address": "Maipú 794",
                "tel": ""
              }
            ]
          ]
        },
        {
          "dia": 2,
          "dateShift": "b",
          "mes": "Enero",
          "pharmacies": [
            [
              {
                "id": "1",
                "name": "Carrera",
                "lat": -33.33527550138496,
                "lon": -60.21376893357031,
                "address": "Almafuerte y España",
                "tel": ""
              },
              {
                "id": "2",
                "name": "Coccaro",
                "lat": -33.34474852087967,
                "lon": -60.19377664891196,
                "address": "Rivadavia 987 Bis",
                "tel": "03364450202"
              },
              {
                "id": "3",
                "name": "Del Pueblo",
                "lat": -33.33596684872637,
                "lon": -60.222195275899224,
                "address": "Nacion 450",
                "tel": "03364425552"
              },
              {
                "id": "4",
                "name": "Dotto",
                "lat": -33.34457735789202,
                "lon": -60.21517806240539,
                "address": "Pringles y Alvear",
                "tel": ""
              },
              {
                "id": "5",
                "name": "Melone",
                "lat": -33.34419558241745,
                "lon": -60.2302618624053,
                "address": "Pte. Perón 858",
                "tel": "03364441989"
              },
              {
                "id": "6",
                "name": "Taljame",
                "lat": -33.32988423370772,
                "lon": -60.226030860557444,
                "address": "Av. Alberdi 346",
                "tel": "03364426672"
              }
            ]
          ]
        },
        {
          "dia": 3,
          "dateShift": "c",
          "mes": "Enero",
          "pharmacies": [
            [
              {
                "id": "1",
                "name": "Amefarma",
                "lat": -33.33026605518724,
                "lon": -60.21862980473507,
                "address": "Mitre 200",
                "tel": "03364425920"
              },
              {
                "id": "2",
                "name": "Garetto",
                "lat": -33.34521879728404,
                "lon": -60.22341908939211,
                "address": "Av Morteo y España",
                "tel": "03364424849"
              },
              {
                "id": "3",
                "name": "Liliana Latorre",
                "lat": -33.336248827222235,
                "lon": -60.21697028440585,
                "address": "Ameghino 347",
                "tel": ""
              },
              {
                "id": "4",
                "name": "Ponce",
                "lat": -33.368253649871356,
                "lon": -60.19906733356849,
                "address": "Juramento 1445",
                "tel": "03364572034"
              },
              {
                "id": "5",
                "name": "Rasetto",
                "lat": -33.326447425222845,
                "lon": -60.233922104735235,
                "address": "Av. Viale 401",
                "tel": "03364430050"
              },
              {
                "id": "6",
                "name": "San Nicolas",
                "lat": -33.34476855830512,
                "lon": -60.2054229470632,
                "address": "Cochabamba 357",
                "tel": ""
              }
            ]
          ]
        },
        {
          "dia": 4,
          "dateShift": "d",
          "mes": "Enero",
          "pharmacies": [
            [
              {
                "id": "1",
                "name": "Boffa",
                "lat": -33.35386710132978,
                "lon": -60.19665060473372,
                "address": "Av. Savio 1142",
                "tel": "03364451628"
              },
              {
                "id": "2",
                "name": "Cej",
                "lat": -33.34204348639081,
                "lon": -60.20894950288566,
                "address": "Maipú 495",
                "tel": "03364430391"
              },
              {
                "id": "3",
                "name": "De Los Arroyos",
                "lat": -33.32916183927236,
                "lon": -60.21570200473506,
                "address": "Nación 102",
                "tel": "03364423130"
              },
              {
                "id": "4",
                "name": "Lombardi",
                "lat": -33.33400345367174,
                "lon": -60.23014073357039,
                "address": "Av. Alberdi 548",
                "tel": "03364436606"
              },
              {
                "id": "5",
                "name": "Porta",
                "lat": -33.338506661084516,
                "lon": -60.219263306583315,
                "address": "Av. Savio 147",
                "tel": "03364459244"
              },
              {
                "id": "6",
                "name": "Romero",
                "lat": -33.356978430137346,
                "lon": -60.24538267589811,
                "address": "Pte. Perón 1648",
                "tel": "03364443073"
              }
            ]
          ]
        },
        {
          "dia": 5,
          "dateShift": "e",
          "mes": "Enero",
          "pharmacies": [
            [
              {
                "id": "1",
                "name": "Almada",
                "lat": -33.33809357048762,
                "lon": -60.21483873357023,
                "address": "Maipú y J. B. Justo",
                "tel": "03364425645"
              },
              {
                "id": "2",
                "name": "Catalan",
                "lat": -33.339203656719455,
                "lon": -60.208158791241075,
                "address": "Almafuerte 442",
                "tel": "03364421595"
              },
              {
                "id": "3",
                "name": "De La Torre",
                "lat": -33.31731156811025,
                "lon": -60.23116020473564,
                "address": "Av. Arturo Illia 643",
                "tel": ""
              },
              {
                "id": "4",
                "name": "Girardi",
                "lat": -33.36033017498645,
                "lon": -60.18731794706247,
                "address": "Av. Savio 1634",
                "tel": "03364462724"
              },
              {
                "id": "5",
                "name": "Henrich",
                "lat": -33.33104064879514,
                "lon": -60.21998907589947,
                "address": "9 de Julio 63",
                "tel": "03364434455"
              },
              {
                "id": "6",
                "name": "Tonon",
                "lat": -33.34247267904897,
                "lon": -60.22468084891203,
                "address": "Garibaldi 692",
                "tel": "03364421059"
              }
            ]
          ]
        },
        {
          "dia": 6,
          "dateShift": "f",
          "mes": "Enero",
          "pharmacies": [
            [
              {
                "id": "1",
                "name": "Cantondebat",
                "lat": -33.35055010878087,
                "lon": -60.213401135418216,
                "address": "Brown 598",
                "tel": ""
              },
              {
                "id": "2",
                "name": "Cavara",
                "lat": -33.33570727517761,
                "lon": -60.20832214521492,
                "address": "Italia Y Necochea",
                "tel": "03364436204"
              },
              {
                "id": "3",
                "name": "Fenix",
                "lat": -33.33426894452214,
                "lon": -60.21697324704747,
                "address": "Garibaldi 281",
                "tel": "03364423117"
              },
              {
                "id": "4",
                "name": "Frattini",
                "lat": -33.33443759070356,
                "lon": -60.22511569124136,
                "address": "Av. Moreno 108",
                "tel": ""
              },
              {
                "id": "5",
                "name": "Prat",
                "lat": -33.34953240647645,
                "lon": -60.235944977747174,
                "address": "Pte Perón 1093",
                "tel": "03364441803"
              },
              {
                "id": "6",
                "name": "Zonta",
                "lat": -33.324212854979265,
                "lon": -60.22765330658413,
                "address": "Urquiza 422",
                "tel": "03364429885"
              }
            ]
          ]
        },
        {
          "dia": 7,
          "dateShift": "g",
          "mes": "Enero",
          "pharmacies": [
            [
              {
                "id": "1",
                "name": "Barbotti",
                "lat": -33.33873459232787,
                "lon": -60.21124080473454,
                "address": "Bolivar y Necochea",
                "tel": "03364452228"
              },
              {
                "id": "2",
                "name": "Brasesco",
                "lat": -33.35593551366345,
                "lon": -60.19359378939154,
                "address": "Av. Savio y Pombo",
                "tel": "03364424768"
              },
              {
                "id": "3",
                "name": "Cesari",
                "lat": -33.330753440513476,
                "lon": -60.21739346240608,
                "address": "Nacion 183",
                "tel": "03364427258"
              },
              {
                "id": "4",
                "name": "Conde",
                "lat": -33.340982587119136,
                "lon": -60.22739727589888,
                "address": "Nacion 701",
                "tel": "03364422389"
              },
              {
                "id": "5",
                "name": "Garaguso",
                "lat": -33.3317777302354,
                "lon": -60.22213790473496,
                "address": "Belgrano 320",
                "tel": "03364619164"
              },
              {
                "id": "6",
                "name": "Prina",
                "lat": -33.31491275949685,
                "lon": -60.233554777749006,
                "address": "Av. Arturo Illia 739",
                "tel": "03364453776"
              }
            ]
          ]
        },
        {
          "dia": 8,
          "dateShift": "h",
          "mes": "Enero",
          "pharmacies": [
            [
              {
                "id": "1",
                "name": "Blanco",
                "lat": -33.34148881416284,
                "lon": -60.20426796240662,
                "address": "Benítez 235",
                "tel": "03364420843"
              },
              {
                "id": "2",
                "name": "Correa",
                "lat": -33.330612040316296,
                "lon": -60.2158215335718,
                "address": "Italia 38",
                "tel": "03364428203"
              },
              {
                "id": "3",
                "name": "Donatelli",
                "lat": -33.322809245979805,
                "lon": -60.22935914891361,
                "address": "Urquiza 499",
                "tel": "0346115430017"
              },
              {
                "id": "4",
                "name": "Gagliardo",
                "lat": -33.347558810802354,
                "lon": -60.23382082534601,
                "address": "Pte Perón 1035",
                "tel": ""
              },
              {
                "id": "5",
                "name": "Salvador",
                "lat": -33.33251775697814,
                "lon": -60.22769900473631,
                "address": "Av. Moreno 220",
                "tel": "03364435180"
              },
              {
                "id": "6",
                "name": "Tioni",
                "lat": -33.35676244560224,
                "lon": -60.19771082007639,
                "address": "Rademil y Alvear",
                "tel": "03364434809"
              },
              {
                "id": "7",
                "name": "Farias",
                "lat": -33.339563741870556,
                "lon": -60.217026247065185,
                "address": "Av. Savio 238",
                "tel": "03364437501"
              }
            ]
          ]
        },
        {
          "dia": 9,
          "dateShift": "i",
          "mes": "Enero",
          "pharmacies": [
            [
              {
                "id": "1",
                "name": "Alonso",
                "lat": -33.33594800276067,
                "lon": -60.22021219124219,
                "address": "Don Bosco y Pellegrini",
                "tel": "03364437687"
              },
              {
                "id": "2",
                "name": "Ciminari",
                "lat": -33.336648186952836,
                "lon": -60.23329622007746,
                "address": "Av. Alberdi 699",
                "tel": ""
              },
              {
                "id": "3",
                "name": "Garcia",
                "lat": -33.3291283676118,
                "lon": -60.21951941823045,
                "address": "Belgrano 184",
                "tel": "03364422324"
              },
              {
                "id": "4",
                "name": "Gomez",
                "lat": -33.35361026252686,
                "lon": -60.241862447064385,
                "address": "Pte. Perón 1366",
                "tel": "03364440633"
              },
              {
                "id": "5",
                "name": "Leone",
                "lat": -33.34974216904613,
                "lon": -60.19571403357069,
                "address": "Bolívar 1053",
                "tel": "03364431766"
              },
              {
                "id": "6",
                "name": "Pza. Sarmiento",
                "lat": -33.33237693152177,
                "lon": -60.21106883357172,
                "address": "España y Rivadavia",
                "tel": ""
              }
            ]
          ]
        },
        {
          "dia": 10,
          "dateShift": "j",
          "mes": "Enero",
          "pharmacies": [
            [
              {
                "id": "1",
                "name": "Alluchon",
                "lat": -33.3339826261711,
                "lon": -60.22272904706558,
                "address": "Olleros 55",
                "tel": "03364430164"
              },
              {
                "id": "2",
                "name": "Bongiorno",
                "lat": -33.3261824245605,
                "lon": -60.222277218230644,
                "address": "Francia y Av. Alberdi",
                "tel": "03364424936"
              },
              {
                "id": "3",
                "name": "Bracco",
                "lat": -33.34215748977071,
                "lon": -60.21384954706507,
                "address": "Av. Savio 373",
                "tel": "03364424389"
              },
              {
                "id": "4",
                "name": "Floreani",
                "lat": -33.329698921086745,
                "lon": -60.2124703423293,
                "address": "Garibaldi y Alem",
                "tel": ""
              },
              {
                "id": "5",
                "name": "Pinasco",
                "lat": -33.33961558401627,
                "lon": -60.22223777590062,
                "address": "Alvear 95",
                "tel": "03364421261"
              },
              {
                "id": "6",
                "name": "Prado",
                "lat": -33.34342090058382,
                "lon": -60.19594055582323,
                "address": "M. Cernadas 110",
                "tel": "03364439209"
              }
            ]
          ]
        },
        {
          "dia": 11,
          "dateShift": "k",
          "mes": "Enero",
          "pharmacies": [
            [
              {
                "id": "1",
                "name": "Andrada",
                "lat": -33.346015148456274,
                "lon": -60.20826593172356,
                "address": "Av. Savio 601",
                "tel": "33644452855"
              },
              {
                "id": "2",
                "name": "Ma. Inés Lopez",
                "lat": -33.32584631741433,
                "lon": -60.220503591242775,
                "address": "L. Guruciaga 103",
                "tel": "03364420142"
              },
              {
                "id": "3",
                "name": "Martinelli",
                "lat": -33.30760644584409,
                "lon": -60.24594672007921,
                "address": "Av. Pte. Illia Nº 1127",
                "tel": ""
              },
              {
                "id": "4",
                "name": "Palau",
                "lat": -33.381217184264806,
                "lon": -60.17691486931719,
                "address": "Av. Central 2215",
                "tel": "03364462030"
              },
              {
                "id": "5",
                "name": "Radium",
                "lat": -33.334118807864,
                "lon": -60.220428004736256,
                "address": "Nación 352",
                "tel": "03364422327"
              },
              {
                "id": "6",
                "name": "Tonello",
                "lat": -33.345026071091006,
                "lon": -60.21977994891237,
                "address": "Av. Falcón 651",
                "tel": "03364139497"
              }
            ]
          ]
        },
        {
          "dia": 12,
          "dateShift": "l",
          "mes": "Enero",
          "pharmacies": [
            [
              {
                "id": "1",
                "name": "Baroni",
                "lat": -33.375773431629916,
                "lon": -60.206423542329276,
                "address": "Av. Irigoyen 1272 (Bº Avamba'e)",
                "tel": ""
              },
              {
                "id": "2",
                "name": "Capra",
                "lat": -33.3282923654617,
                "lon": -60.23377166240725,
                "address": "Av. Moreno 466",
                "tel": "03364433606"
              },
              {
                "id": "3",
                "name": "Hegouaburu",
                "lat": -33.33816751744502,
                "lon": -60.22673372007739,
                "address": "Mitre y Lamadrid",
                "tel": "03364426551"
              },
              {
                "id": "4",
                "name": "Maccaroni",
                "lat": -33.34809535230986,
                "lon": -60.2054570335707,
                "address": "Av. Savio 725",
                "tel": "0336154537811"
              },
              {
                "id": "5",
                "name": "Menna",
                "lat": -33.33745478902769,
                "lon": -60.20402252007743,
                "address": "Rivadavia 501",
                "tel": "03364437078"
              },
              {
                "id": "6",
                "name": "Pucciarelli",
                "lat": -33.32898319571259,
                "lon": -60.22135454891328,
                "address": "Lavalle 215 bis",
                "tel": "03364422016"
              }
            ]
          ]
        },
        {
          "dia": 13,
          "dateShift": "a",
          "mes": "Enero",
          "pharmacies": [
            [
              {
                "id": "1",
                "name": "Armellini",
                "lat": -33.386941417345604,
                "lon": -60.1757641775202,
                "address": "Av. Central Malvinas Argentinas 3105",
                "tel": "03364462060"
              },
              {
                "id": "2",
                "name": "Cabrera",
                "lat": -33.33655176747358,
                "lon": -60.21076250473463,
                "address": "Av. Falcón 222",
                "tel": ""
              },
              {
                "id": "3",
                "name": "Diamante",
                "lat": -33.34041056512958,
                "lon": -60.230896722537636,
                "address": "Belgrano y Albarez",
                "tel": "03364426161"
              },
              {
                "id": "4",
                "name": "Furlan",
                "lat": -33.32788406441988,
                "lon": -60.224821148912916,
                "address": "9 de Julio 260",
                "tel": "03364435036"
              },
              {
                "id": "5",
                "name": "Gonzalez Pacin",
                "lat": -33.33341236133698,
                "lon": -60.21976489309024,
                "address": "Nacion 314",
                "tel": "03364425294"
              },
              {
                "id": "6",
                "name": "Hector Lopez",
                "lat": -33.34691310054558,
                "lon": -60.201602491240784,
                "address": "Maipú 794",
                "tel": ""
              }
            ]
          ]
        },
        {
          "dia": 14,
          "dateShift": "b",
          "mes": "Enero",
          "pharmacies": [
            [
              {
                "id": "1",
                "name": "Carrera",
                "lat": -33.33527550138496,
                "lon": -60.21376893357031,
                "address": "Almafuerte y España",
                "tel": ""
              },
              {
                "id": "2",
                "name": "Coccaro",
                "lat": -33.34474852087967,
                "lon": -60.19377664891196,
                "address": "Rivadavia 987 Bis",
                "tel": "03364450202"
              },
              {
                "id": "3",
                "name": "Del Pueblo",
                "lat": -33.33596684872637,
                "lon": -60.222195275899224,
                "address": "Nacion 450",
                "tel": "03364425552"
              },
              {
                "id": "4",
                "name": "Dotto",
                "lat": -33.34457735789202,
                "lon": -60.21517806240539,
                "address": "Pringles y Alvear",
                "tel": ""
              },
              {
                "id": "5",
                "name": "Melone",
                "lat": -33.34419558241745,
                "lon": -60.2302618624053,
                "address": "Pte. Perón 858",
                "tel": "03364441989"
              },
              {
                "id": "6",
                "name": "Taljame",
                "lat": -33.32988423370772,
                "lon": -60.226030860557444,
                "address": "Av. Alberdi 346",
                "tel": "03364426672"
              }
            ]
          ]
        },
        {
          "dia": 15,
          "dateShift": "c",
          "mes": "Enero",
          "pharmacies": [
            [
              {
                "id": "1",
                "name": "Amefarma",
                "lat": -33.33026605518724,
                "lon": -60.21862980473507,
                "address": "Mitre 200",
                "tel": "03364425920"
              },
              {
                "id": "2",
                "name": "Garetto",
                "lat": -33.34521879728404,
                "lon": -60.22341908939211,
                "address": "Av Morteo y España",
                "tel": "03364424849"
              },
              {
                "id": "3",
                "name": "Liliana Latorre",
                "lat": -33.336248827222235,
                "lon": -60.21697028440585,
                "address": "Ameghino 347",
                "tel": ""
              },
              {
                "id": "4",
                "name": "Ponce",
                "lat": -33.368253649871356,
                "lon": -60.19906733356849,
                "address": "Juramento 1445",
                "tel": "03364572034"
              },
              {
                "id": "5",
                "name": "Rasetto",
                "lat": -33.326447425222845,
                "lon": -60.233922104735235,
                "address": "Av. Viale 401",
                "tel": "03364430050"
              },
              {
                "id": "6",
                "name": "San Nicolas",
                "lat": -33.34476855830512,
                "lon": -60.2054229470632,
                "address": "Cochabamba 357",
                "tel": ""
              }
            ]
          ]
        },
        {
          "dia": 16,
          "dateShift": "d",
          "mes": "Enero",
          "pharmacies": [
            [
              {
                "id": "1",
                "name": "Boffa",
                "lat": -33.35386710132978,
                "lon": -60.19665060473372,
                "address": "Av. Savio 1142",
                "tel": "03364451628"
              },
              {
                "id": "2",
                "name": "Cej",
                "lat": -33.34204348639081,
                "lon": -60.20894950288566,
                "address": "Maipú 495",
                "tel": "03364430391"
              },
              {
                "id": "3",
                "name": "De Los Arroyos",
                "lat": -33.32916183927236,
                "lon": -60.21570200473506,
                "address": "Nación 102",
                "tel": "03364423130"
              },
              {
                "id": "4",
                "name": "Lombardi",
                "lat": -33.33400345367174,
                "lon": -60.23014073357039,
                "address": "Av. Alberdi 548",
                "tel": "03364436606"
              },
              {
                "id": "5",
                "name": "Porta",
                "lat": -33.338506661084516,
                "lon": -60.219263306583315,
                "address": "Av. Savio 147",
                "tel": "03364459244"
              },
              {
                "id": "6",
                "name": "Romero",
                "lat": -33.356978430137346,
                "lon": -60.24538267589811,
                "address": "Pte. Perón 1648",
                "tel": "03364443073"
              }
            ]
          ]
        },
        {
          "dia": 17,
          "dateShift": "e",
          "mes": "Enero",
          "pharmacies": [
            [
              {
                "id": "1",
                "name": "Almada",
                "lat": -33.33809357048762,
                "lon": -60.21483873357023,
                "address": "Maipú y J. B. Justo",
                "tel": "03364425645"
              },
              {
                "id": "2",
                "name": "Catalan",
                "lat": -33.339203656719455,
                "lon": -60.208158791241075,
                "address": "Almafuerte 442",
                "tel": "03364421595"
              },
              {
                "id": "3",
                "name": "De La Torre",
                "lat": -33.31731156811025,
                "lon": -60.23116020473564,
                "address": "Av. Arturo Illia 643",
                "tel": ""
              },
              {
                "id": "4",
                "name": "Girardi",
                "lat": -33.36033017498645,
                "lon": -60.18731794706247,
                "address": "Av. Savio 1634",
                "tel": "03364462724"
              },
              {
                "id": "5",
                "name": "Henrich",
                "lat": -33.33104064879514,
                "lon": -60.21998907589947,
                "address": "9 de Julio 63",
                "tel": "03364434455"
              },
              {
                "id": "6",
                "name": "Tonon",
                "lat": -33.34247267904897,
                "lon": -60.22468084891203,
                "address": "Garibaldi 692",
                "tel": "03364421059"
              }
            ]
          ]
        },
        {
          "dia": 18,
          "dateShift": "f",
          "mes": "Enero",
          "pharmacies": [
            [
              {
                "id": "1",
                "name": "Cantondebat",
                "lat": -33.35055010878087,
                "lon": -60.213401135418216,
                "address": "Brown 598",
                "tel": ""
              },
              {
                "id": "2",
                "name": "Cavara",
                "lat": -33.33570727517761,
                "lon": -60.20832214521492,
                "address": "Italia Y Necochea",
                "tel": "03364436204"
              },
              {
                "id": "3",
                "name": "Fenix",
                "lat": -33.33426894452214,
                "lon": -60.21697324704747,
                "address": "Garibaldi 281",
                "tel": "03364423117"
              },
              {
                "id": "4",
                "name": "Frattini",
                "lat": -33.33443759070356,
                "lon": -60.22511569124136,
                "address": "Av. Moreno 108",
                "tel": ""
              },
              {
                "id": "5",
                "name": "Prat",
                "lat": -33.34953240647645,
                "lon": -60.235944977747174,
                "address": "Pte Perón 1093",
                "tel": "03364441803"
              },
              {
                "id": "6",
                "name": "Zonta",
                "lat": -33.324212854979265,
                "lon": -60.22765330658413,
                "address": "Urquiza 422",
                "tel": "03364429885"
              }
            ]
          ]
        },
        {
          "dia": 19,
          "dateShift": "g",
          "mes": "Enero",
          "pharmacies": [
            [
              {
                "id": "1",
                "name": "Barbotti",
                "lat": -33.33873459232787,
                "lon": -60.21124080473454,
                "address": "Bolivar y Necochea",
                "tel": "03364452228"
              },
              {
                "id": "2",
                "name": "Brasesco",
                "lat": -33.35593551366345,
                "lon": -60.19359378939154,
                "address": "Av. Savio y Pombo",
                "tel": "03364424768"
              },
              {
                "id": "3",
                "name": "Cesari",
                "lat": -33.330753440513476,
                "lon": -60.21739346240608,
                "address": "Nacion 183",
                "tel": "03364427258"
              },
              {
                "id": "4",
                "name": "Conde",
                "lat": -33.340982587119136,
                "lon": -60.22739727589888,
                "address": "Nacion 701",
                "tel": "03364422389"
              },
              {
                "id": "5",
                "name": "Garaguso",
                "lat": -33.3317777302354,
                "lon": -60.22213790473496,
                "address": "Belgrano 320",
                "tel": "03364619164"
              },
              {
                "id": "6",
                "name": "Prina",
                "lat": -33.31491275949685,
                "lon": -60.233554777749006,
                "address": "Av. Arturo Illia 739",
                "tel": "03364453776"
              }
            ]
          ]
        },
        {
          "dia": 20,
          "dateShift": "h",
          "mes": "Enero",
          "pharmacies": [
            [
              {
                "id": "1",
                "name": "Blanco",
                "lat": -33.34148881416284,
                "lon": -60.20426796240662,
                "address": "Benítez 235",
                "tel": "03364420843"
              },
              {
                "id": "2",
                "name": "Correa",
                "lat": -33.330612040316296,
                "lon": -60.2158215335718,
                "address": "Italia 38",
                "tel": "03364428203"
              },
              {
                "id": "3",
                "name": "Donatelli",
                "lat": -33.322809245979805,
                "lon": -60.22935914891361,
                "address": "Urquiza 499",
                "tel": "0346115430017"
              },
              {
                "id": "4",
                "name": "Gagliardo",
                "lat": -33.347558810802354,
                "lon": -60.23382082534601,
                "address": "Pte Perón 1035",
                "tel": ""
              },
              {
                "id": "5",
                "name": "Salvador",
                "lat": -33.33251775697814,
                "lon": -60.22769900473631,
                "address": "Av. Moreno 220",
                "tel": "03364435180"
              },
              {
                "id": "6",
                "name": "Tioni",
                "lat": -33.35676244560224,
                "lon": -60.19771082007639,
                "address": "Rademil y Alvear",
                "tel": "03364434809"
              },
              {
                "id": "7",
                "name": "Farias",
                "lat": -33.339563741870556,
                "lon": -60.217026247065185,
                "address": "Av. Savio 238",
                "tel": "03364437501"
              }
            ]
          ]
        },
        {
          "dia": 21,
          "dateShift": "i",
          "mes": "Enero",
          "pharmacies": [
            [
              {
                "id": "1",
                "name": "Alonso",
                "lat": -33.33594800276067,
                "lon": -60.22021219124219,
                "address": "Don Bosco y Pellegrini",
                "tel": "03364437687"
              },
              {
                "id": "2",
                "name": "Ciminari",
                "lat": -33.336648186952836,
                "lon": -60.23329622007746,
                "address": "Av. Alberdi 699",
                "tel": ""
              },
              {
                "id": "3",
                "name": "Garcia",
                "lat": -33.3291283676118,
                "lon": -60.21951941823045,
                "address": "Belgrano 184",
                "tel": "03364422324"
              },
              {
                "id": "4",
                "name": "Gomez",
                "lat": -33.35361026252686,
                "lon": -60.241862447064385,
                "address": "Pte. Perón 1366",
                "tel": "03364440633"
              },
              {
                "id": "5",
                "name": "Leone",
                "lat": -33.34974216904613,
                "lon": -60.19571403357069,
                "address": "Bolívar 1053",
                "tel": "03364431766"
              },
              {
                "id": "6",
                "name": "Pza. Sarmiento",
                "lat": -33.33237693152177,
                "lon": -60.21106883357172,
                "address": "España y Rivadavia",
                "tel": ""
              }
            ]
          ]
        },
        {
          "dia": 22,
          "dateShift": "j",
          "mes": "Enero",
          "pharmacies": [
            [
              {
                "id": "1",
                "name": "Alluchon",
                "lat": -33.3339826261711,
                "lon": -60.22272904706558,
                "address": "Olleros 55",
                "tel": "03364430164"
              },
              {
                "id": "2",
                "name": "Bongiorno",
                "lat": -33.3261824245605,
                "lon": -60.222277218230644,
                "address": "Francia y Av. Alberdi",
                "tel": "03364424936"
              },
              {
                "id": "3",
                "name": "Bracco",
                "lat": -33.34215748977071,
                "lon": -60.21384954706507,
                "address": "Av. Savio 373",
                "tel": "03364424389"
              },
              {
                "id": "4",
                "name": "Floreani",
                "lat": -33.329698921086745,
                "lon": -60.2124703423293,
                "address": "Garibaldi y Alem",
                "tel": ""
              },
              {
                "id": "5",
                "name": "Pinasco",
                "lat": -33.33961558401627,
                "lon": -60.22223777590062,
                "address": "Alvear 95",
                "tel": "03364421261"
              },
              {
                "id": "6",
                "name": "Prado",
                "lat": -33.34342090058382,
                "lon": -60.19594055582323,
                "address": "M. Cernadas 110",
                "tel": "03364439209"
              }
            ]
          ]
        },
        {
          "dia": 23,
          "dateShift": "k",
          "mes": "Enero",
          "pharmacies": [
            [
              {
                "id": "1",
                "name": "Andrada",
                "lat": -33.346015148456274,
                "lon": -60.20826593172356,
                "address": "Av. Savio 601",
                "tel": "33644452855"
              },
              {
                "id": "2",
                "name": "Ma. Inés Lopez",
                "lat": -33.32584631741433,
                "lon": -60.220503591242775,
                "address": "L. Guruciaga 103",
                "tel": "03364420142"
              },
              {
                "id": "3",
                "name": "Martinelli",
                "lat": -33.30760644584409,
                "lon": -60.24594672007921,
                "address": "Av. Pte. Illia Nº 1127",
                "tel": ""
              },
              {
                "id": "4",
                "name": "Palau",
                "lat": -33.381217184264806,
                "lon": -60.17691486931719,
                "address": "Av. Central 2215",
                "tel": "03364462030"
              },
              {
                "id": "5",
                "name": "Radium",
                "lat": -33.334118807864,
                "lon": -60.220428004736256,
                "address": "Nación 352",
                "tel": "03364422327"
              },
              {
                "id": "6",
                "name": "Tonello",
                "lat": -33.345026071091006,
                "lon": -60.21977994891237,
                "address": "Av. Falcón 651",
                "tel": "03364139497"
              }
            ]
          ]
        },
        {
          "dia": 24,
          "dateShift": "l",
          "mes": "Enero",
          "pharmacies": [
            [
              {
                "id": "1",
                "name": "Baroni",
                "lat": -33.375773431629916,
                "lon": -60.206423542329276,
                "address": "Av. Irigoyen 1272 (Bº Avamba'e)",
                "tel": ""
              },
              {
                "id": "2",
                "name": "Capra",
                "lat": -33.3282923654617,
                "lon": -60.23377166240725,
                "address": "Av. Moreno 466",
                "tel": "03364433606"
              },
              {
                "id": "3",
                "name": "Hegouaburu",
                "lat": -33.33816751744502,
                "lon": -60.22673372007739,
                "address": "Mitre y Lamadrid",
                "tel": "03364426551"
              },
              {
                "id": "4",
                "name": "Maccaroni",
                "lat": -33.34809535230986,
                "lon": -60.2054570335707,
                "address": "Av. Savio 725",
                "tel": "0336154537811"
              },
              {
                "id": "5",
                "name": "Menna",
                "lat": -33.33745478902769,
                "lon": -60.20402252007743,
                "address": "Rivadavia 501",
                "tel": "03364437078"
              },
              {
                "id": "6",
                "name": "Pucciarelli",
                "lat": -33.32898319571259,
                "lon": -60.22135454891328,
                "address": "Lavalle 215 bis",
                "tel": "03364422016"
              }
            ]
          ]
        },
        {
          "dia": 25,
          "dateShift": "a",
          "mes": "Enero",
          "pharmacies": [
            [
              {
                "id": "1",
                "name": "Armellini",
                "lat": -33.386941417345604,
                "lon": -60.1757641775202,
                "address": "Av. Central Malvinas Argentinas 3105",
                "tel": "03364462060"
              },
              {
                "id": "2",
                "name": "Cabrera",
                "lat": -33.33655176747358,
                "lon": -60.21076250473463,
                "address": "Av. Falcón 222",
                "tel": ""
              },
              {
                "id": "3",
                "name": "Diamante",
                "lat": -33.34041056512958,
                "lon": -60.230896722537636,
                "address": "Belgrano y Albarez",
                "tel": "03364426161"
              },
              {
                "id": "4",
                "name": "Furlan",
                "lat": -33.32788406441988,
                "lon": -60.224821148912916,
                "address": "9 de Julio 260",
                "tel": "03364435036"
              },
              {
                "id": "5",
                "name": "Gonzalez Pacin",
                "lat": -33.33341236133698,
                "lon": -60.21976489309024,
                "address": "Nacion 314",
                "tel": "03364425294"
              },
              {
                "id": "6",
                "name": "Hector Lopez",
                "lat": -33.34691310054558,
                "lon": -60.201602491240784,
                "address": "Maipú 794",
                "tel": ""
              }
            ]
          ]
        },
        {
          "dia": 26,
          "dateShift": "b",
          "mes": "Enero",
          "pharmacies": [
            [
              {
                "id": "1",
                "name": "Carrera",
                "lat": -33.33527550138496,
                "lon": -60.21376893357031,
                "address": "Almafuerte y España",
                "tel": ""
              },
              {
                "id": "2",
                "name": "Coccaro",
                "lat": -33.34474852087967,
                "lon": -60.19377664891196,
                "address": "Rivadavia 987 Bis",
                "tel": "03364450202"
              },
              {
                "id": "3",
                "name": "Del Pueblo",
                "lat": -33.33596684872637,
                "lon": -60.222195275899224,
                "address": "Nacion 450",
                "tel": "03364425552"
              },
              {
                "id": "4",
                "name": "Dotto",
                "lat": -33.34457735789202,
                "lon": -60.21517806240539,
                "address": "Pringles y Alvear",
                "tel": ""
              },
              {
                "id": "5",
                "name": "Melone",
                "lat": -33.34419558241745,
                "lon": -60.2302618624053,
                "address": "Pte. Perón 858",
                "tel": "03364441989"
              },
              {
                "id": "6",
                "name": "Taljame",
                "lat": -33.32988423370772,
                "lon": -60.226030860557444,
                "address": "Av. Alberdi 346",
                "tel": "03364426672"
              }
            ]
          ]
        },
        {
          "dia": 27,
          "dateShift": "c",
          "mes": "Enero",
          "pharmacies": [
            [
              {
                "id": "1",
                "name": "Amefarma",
                "lat": -33.33026605518724,
                "lon": -60.21862980473507,
                "address": "Mitre 200",
                "tel": "03364425920"
              },
              {
                "id": "2",
                "name": "Garetto",
                "lat": -33.34521879728404,
                "lon": -60.22341908939211,
                "address": "Av Morteo y España",
                "tel": "03364424849"
              },
              {
                "id": "3",
                "name": "Liliana Latorre",
                "lat": -33.336248827222235,
                "lon": -60.21697028440585,
                "address": "Ameghino 347",
                "tel": ""
              },
              {
                "id": "4",
                "name": "Ponce",
                "lat": -33.368253649871356,
                "lon": -60.19906733356849,
                "address": "Juramento 1445",
                "tel": "03364572034"
              },
              {
                "id": "5",
                "name": "Rasetto",
                "lat": -33.326447425222845,
                "lon": -60.233922104735235,
                "address": "Av. Viale 401",
                "tel": "03364430050"
              },
              {
                "id": "6",
                "name": "San Nicolas",
                "lat": -33.34476855830512,
                "lon": -60.2054229470632,
                "address": "Cochabamba 357",
                "tel": ""
              }
            ]
          ]
        },
        {
          "dia": 28,
          "dateShift": "d",
          "mes": "Enero",
          "pharmacies": [
            [
              {
                "id": "1",
                "name": "Boffa",
                "lat": -33.35386710132978,
                "lon": -60.19665060473372,
                "address": "Av. Savio 1142",
                "tel": "03364451628"
              },
              {
                "id": "2",
                "name": "Cej",
                "lat": -33.34204348639081,
                "lon": -60.20894950288566,
                "address": "Maipú 495",
                "tel": "03364430391"
              },
              {
                "id": "3",
                "name": "De Los Arroyos",
                "lat": -33.32916183927236,
                "lon": -60.21570200473506,
                "address": "Nación 102",
                "tel": "03364423130"
              },
              {
                "id": "4",
                "name": "Lombardi",
                "lat": -33.33400345367174,
                "lon": -60.23014073357039,
                "address": "Av. Alberdi 548",
                "tel": "03364436606"
              },
              {
                "id": "5",
                "name": "Porta",
                "lat": -33.338506661084516,
                "lon": -60.219263306583315,
                "address": "Av. Savio 147",
                "tel": "03364459244"
              },
              {
                "id": "6",
                "name": "Romero",
                "lat": -33.356978430137346,
                "lon": -60.24538267589811,
                "address": "Pte. Perón 1648",
                "tel": "03364443073"
              }
            ]
          ]
        },
        {
          "dia": 29,
          "dateShift": "e",
          "mes": "Enero",
          "pharmacies": [
            [
              {
                "id": "1",
                "name": "Almada",
                "lat": -33.33809357048762,
                "lon": -60.21483873357023,
                "address": "Maipú y J. B. Justo",
                "tel": "03364425645"
              },
              {
                "id": "2",
                "name": "Catalan",
                "lat": -33.339203656719455,
                "lon": -60.208158791241075,
                "address": "Almafuerte 442",
                "tel": "03364421595"
              },
              {
                "id": "3",
                "name": "De La Torre",
                "lat": -33.31731156811025,
                "lon": -60.23116020473564,
                "address": "Av. Arturo Illia 643",
                "tel": ""
              },
              {
                "id": "4",
                "name": "Girardi",
                "lat": -33.36033017498645,
                "lon": -60.18731794706247,
                "address": "Av. Savio 1634",
                "tel": "03364462724"
              },
              {
                "id": "5",
                "name": "Henrich",
                "lat": -33.33104064879514,
                "lon": -60.21998907589947,
                "address": "9 de Julio 63",
                "tel": "03364434455"
              },
              {
                "id": "6",
                "name": "Tonon",
                "lat": -33.34247267904897,
                "lon": -60.22468084891203,
                "address": "Garibaldi 692",
                "tel": "03364421059"
              }
            ]
          ]
        },
        {
          "dia": 30,
          "dateShift": "f",
          "mes": "Enero",
          "pharmacies": [
            [
              {
                "id": "1",
                "name": "Cantondebat",
                "lat": -33.35055010878087,
                "lon": -60.213401135418216,
                "address": "Brown 598",
                "tel": ""
              },
              {
                "id": "2",
                "name": "Cavara",
                "lat": -33.33570727517761,
                "lon": -60.20832214521492,
                "address": "Italia Y Necochea",
                "tel": "03364436204"
              },
              {
                "id": "3",
                "name": "Fenix",
                "lat": -33.33426894452214,
                "lon": -60.21697324704747,
                "address": "Garibaldi 281",
                "tel": "03364423117"
              },
              {
                "id": "4",
                "name": "Frattini",
                "lat": -33.33443759070356,
                "lon": -60.22511569124136,
                "address": "Av. Moreno 108",
                "tel": ""
              },
              {
                "id": "5",
                "name": "Prat",
                "lat": -33.34953240647645,
                "lon": -60.235944977747174,
                "address": "Pte Perón 1093",
                "tel": "03364441803"
              },
              {
                "id": "6",
                "name": "Zonta",
                "lat": -33.324212854979265,
                "lon": -60.22765330658413,
                "address": "Urquiza 422",
                "tel": "03364429885"
              }
            ]
          ]
        },
        {
          "dia": 31,
          "dateShift": "g",
          "mes": "Enero",
          "pharmacies": [
            [
              {
                "id": "1",
                "name": "Barbotti",
                "lat": -33.33873459232787,
                "lon": -60.21124080473454,
                "address": "Bolivar y Necochea",
                "tel": "03364452228"
              },
              {
                "id": "2",
                "name": "Brasesco",
                "lat": -33.35593551366345,
                "lon": -60.19359378939154,
                "address": "Av. Savio y Pombo",
                "tel": "03364424768"
              },
              {
                "id": "3",
                "name": "Cesari",
                "lat": -33.330753440513476,
                "lon": -60.21739346240608,
                "address": "Nacion 183",
                "tel": "03364427258"
              },
              {
                "id": "4",
                "name": "Conde",
                "lat": -33.340982587119136,
                "lon": -60.22739727589888,
                "address": "Nacion 701",
                "tel": "03364422389"
              },
              {
                "id": "5",
                "name": "Garaguso",
                "lat": -33.3317777302354,
                "lon": -60.22213790473496,
                "address": "Belgrano 320",
                "tel": "03364619164"
              },
              {
                "id": "6",
                "name": "Prina",
                "lat": -33.31491275949685,
                "lon": -60.233554777749006,
                "address": "Av. Arturo Illia 739",
                "tel": "03364453776"
              }
            ]
          ]
        }
      ]
    },
    {
      "2": [
        {
          "dia": 1,
          "dateShift": "h",
          "mes": "Febrero",
          "pharmacies": [
            [
              {
                "id": "1",
                "name": "Blanco",
                "lat": -33.34148881416284,
                "lon": -60.20426796240662,
                "address": "Benítez 235",
                "tel": "03364420843"
              },
              {
                "id": "2",
                "name": "Correa",
                "lat": -33.330612040316296,
                "lon": -60.2158215335718,
                "address": "Italia 38",
                "tel": "03364428203"
              },
              {
                "id": "3",
                "name": "Donatelli",
                "lat": -33.322809245979805,
                "lon": -60.22935914891361,
                "address": "Urquiza 499",
                "tel": "0346115430017"
              },
              {
                "id": "4",
                "name": "Gagliardo",
                "lat": -33.347558810802354,
                "lon": -60.23382082534601,
                "address": "Pte Perón 1035",
                "tel": ""
              },
              {
                "id": "5",
                "name": "Salvador",
                "lat": -33.33251775697814,
                "lon": -60.22769900473631,
                "address": "Av. Moreno 220",
                "tel": "03364435180"
              },
              {
                "id": "6",
                "name": "Tioni",
                "lat": -33.35676244560224,
                "lon": -60.19771082007639,
                "address": "Rademil y Alvear",
                "tel": "03364434809"
              },
              {
                "id": "7",
                "name": "Farias",
                "lat": -33.339563741870556,
                "lon": -60.217026247065185,
                "address": "Av. Savio 238",
                "tel": "03364437501"
              }
            ]
          ]
        },
        {
          "dia": 2,
          "dateShift": "i",
          "mes": "Febrero",
          "pharmacies": [
            [
              {
                "id": "1",
                "name": "Alonso",
                "lat": -33.33594800276067,
                "lon": -60.22021219124219,
                "address": "Don Bosco y Pellegrini",
                "tel": "03364437687"
              },
              {
                "id": "2",
                "name": "Ciminari",
                "lat": -33.336648186952836,
                "lon": -60.23329622007746,
                "address": "Av. Alberdi 699",
                "tel": ""
              },
              {
                "id": "3",
                "name": "Garcia",
                "lat": -33.3291283676118,
                "lon": -60.21951941823045,
                "address": "Belgrano 184",
                "tel": "03364422324"
              },
              {
                "id": "4",
                "name": "Gomez",
                "lat": -33.35361026252686,
                "lon": -60.241862447064385,
                "address": "Pte. Perón 1366",
                "tel": "03364440633"
              },
              {
                "id": "5",
                "name": "Leone",
                "lat": -33.34974216904613,
                "lon": -60.19571403357069,
                "address": "Bolívar 1053",
                "tel": "03364431766"
              },
              {
                "id": "6",
                "name": "Pza. Sarmiento",
                "lat": -33.33237693152177,
                "lon": -60.21106883357172,
                "address": "España y Rivadavia",
                "tel": ""
              }
            ]
          ]
        },
        {
          "dia": 3,
          "dateShift": "j",
          "mes": "Febrero",
          "pharmacies": [
            [
              {
                "id": "1",
                "name": "Alluchon",
                "lat": -33.3339826261711,
                "lon": -60.22272904706558,
                "address": "Olleros 55",
                "tel": "03364430164"
              },
              {
                "id": "2",
                "name": "Bongiorno",
                "lat": -33.3261824245605,
                "lon": -60.222277218230644,
                "address": "Francia y Av. Alberdi",
                "tel": "03364424936"
              },
              {
                "id": "3",
                "name": "Bracco",
                "lat": -33.34215748977071,
                "lon": -60.21384954706507,
                "address": "Av. Savio 373",
                "tel": "03364424389"
              },
              {
                "id": "4",
                "name": "Floreani",
                "lat": -33.329698921086745,
                "lon": -60.2124703423293,
                "address": "Garibaldi y Alem",
                "tel": ""
              },
              {
                "id": "5",
                "name": "Pinasco",
                "lat": -33.33961558401627,
                "lon": -60.22223777590062,
                "address": "Alvear 95",
                "tel": "03364421261"
              },
              {
                "id": "6",
                "name": "Prado",
                "lat": -33.34342090058382,
                "lon": -60.19594055582323,
                "address": "M. Cernadas 110",
                "tel": "03364439209"
              }
            ]
          ]
        },
        {
          "dia": 4,
          "dateShift": "k",
          "mes": "Febrero",
          "pharmacies": [
            [
              {
                "id": "1",
                "name": "Andrada",
                "lat": -33.346015148456274,
                "lon": -60.20826593172356,
                "address": "Av. Savio 601",
                "tel": "33644452855"
              },
              {
                "id": "2",
                "name": "Ma. Inés Lopez",
                "lat": -33.32584631741433,
                "lon": -60.220503591242775,
                "address": "L. Guruciaga 103",
                "tel": "03364420142"
              },
              {
                "id": "3",
                "name": "Martinelli",
                "lat": -33.30760644584409,
                "lon": -60.24594672007921,
                "address": "Av. Pte. Illia Nº 1127",
                "tel": ""
              },
              {
                "id": "4",
                "name": "Palau",
                "lat": -33.381217184264806,
                "lon": -60.17691486931719,
                "address": "Av. Central 2215",
                "tel": "03364462030"
              },
              {
                "id": "5",
                "name": "Radium",
                "lat": -33.334118807864,
                "lon": -60.220428004736256,
                "address": "Nación 352",
                "tel": "03364422327"
              },
              {
                "id": "6",
                "name": "Tonello",
                "lat": -33.345026071091006,
                "lon": -60.21977994891237,
                "address": "Av. Falcón 651",
                "tel": "03364139497"
              }
            ]
          ]
        },
        {
          "dia": 5,
          "dateShift": "l",
          "mes": "Febrero",
          "pharmacies": [
            [
              {
                "id": "1",
                "name": "Baroni",
                "lat": -33.375773431629916,
                "lon": -60.206423542329276,
                "address": "Av. Irigoyen 1272 (Bº Avamba'e)",
                "tel": ""
              },
              {
                "id": "2",
                "name": "Capra",
                "lat": -33.3282923654617,
                "lon": -60.23377166240725,
                "address": "Av. Moreno 466",
                "tel": "03364433606"
              },
              {
                "id": "3",
                "name": "Hegouaburu",
                "lat": -33.33816751744502,
                "lon": -60.22673372007739,
                "address": "Mitre y Lamadrid",
                "tel": "03364426551"
              },
              {
                "id": "4",
                "name": "Maccaroni",
                "lat": -33.34809535230986,
                "lon": -60.2054570335707,
                "address": "Av. Savio 725",
                "tel": "0336154537811"
              },
              {
                "id": "5",
                "name": "Menna",
                "lat": -33.33745478902769,
                "lon": -60.20402252007743,
                "address": "Rivadavia 501",
                "tel": "03364437078"
              },
              {
                "id": "6",
                "name": "Pucciarelli",
                "lat": -33.32898319571259,
                "lon": -60.22135454891328,
                "address": "Lavalle 215 bis",
                "tel": "03364422016"
              }
            ]
          ]
        },
        {
          "dia": 6,
          "dateShift": "a",
          "mes": "Febrero",
          "pharmacies": [
            [
              {
                "id": "1",
                "name": "Armellini",
                "lat": -33.386941417345604,
                "lon": -60.1757641775202,
                "address": "Av. Central Malvinas Argentinas 3105",
                "tel": "03364462060"
              },
              {
                "id": "2",
                "name": "Cabrera",
                "lat": -33.33655176747358,
                "lon": -60.21076250473463,
                "address": "Av. Falcón 222",
                "tel": ""
              },
              {
                "id": "3",
                "name": "Diamante",
                "lat": -33.34041056512958,
                "lon": -60.230896722537636,
                "address": "Belgrano y Albarez",
                "tel": "03364426161"
              },
              {
                "id": "4",
                "name": "Furlan",
                "lat": -33.32788406441988,
                "lon": -60.224821148912916,
                "address": "9 de Julio 260",
                "tel": "03364435036"
              },
              {
                "id": "5",
                "name": "Gonzalez Pacin",
                "lat": -33.33341236133698,
                "lon": -60.21976489309024,
                "address": "Nacion 314",
                "tel": "03364425294"
              },
              {
                "id": "6",
                "name": "Hector Lopez",
                "lat": -33.34691310054558,
                "lon": -60.201602491240784,
                "address": "Maipú 794",
                "tel": ""
              }
            ]
          ]
        },
        {
          "dia": 7,
          "dateShift": "b",
          "mes": "Febrero",
          "pharmacies": [
            [
              {
                "id": "1",
                "name": "Carrera",
                "lat": -33.33527550138496,
                "lon": -60.21376893357031,
                "address": "Almafuerte y España",
                "tel": ""
              },
              {
                "id": "2",
                "name": "Coccaro",
                "lat": -33.34474852087967,
                "lon": -60.19377664891196,
                "address": "Rivadavia 987 Bis",
                "tel": "03364450202"
              },
              {
                "id": "3",
                "name": "Del Pueblo",
                "lat": -33.33596684872637,
                "lon": -60.222195275899224,
                "address": "Nacion 450",
                "tel": "03364425552"
              },
              {
                "id": "4",
                "name": "Dotto",
                "lat": -33.34457735789202,
                "lon": -60.21517806240539,
                "address": "Pringles y Alvear",
                "tel": ""
              },
              {
                "id": "5",
                "name": "Melone",
                "lat": -33.34419558241745,
                "lon": -60.2302618624053,
                "address": "Pte. Perón 858",
                "tel": "03364441989"
              },
              {
                "id": "6",
                "name": "Taljame",
                "lat": -33.32988423370772,
                "lon": -60.226030860557444,
                "address": "Av. Alberdi 346",
                "tel": "03364426672"
              }
            ]
          ]
        },
        {
          "dia": 8,
          "dateShift": "c",
          "mes": "Febrero",
          "pharmacies": [
            [
              {
                "id": "1",
                "name": "Amefarma",
                "lat": -33.33026605518724,
                "lon": -60.21862980473507,
                "address": "Mitre 200",
                "tel": "03364425920"
              },
              {
                "id": "2",
                "name": "Garetto",
                "lat": -33.34521879728404,
                "lon": -60.22341908939211,
                "address": "Av Morteo y España",
                "tel": "03364424849"
              },
              {
                "id": "3",
                "name": "Liliana Latorre",
                "lat": -33.336248827222235,
                "lon": -60.21697028440585,
                "address": "Ameghino 347",
                "tel": ""
              },
              {
                "id": "4",
                "name": "Ponce",
                "lat": -33.368253649871356,
                "lon": -60.19906733356849,
                "address": "Juramento 1445",
                "tel": "03364572034"
              },
              {
                "id": "5",
                "name": "Rasetto",
                "lat": -33.326447425222845,
                "lon": -60.233922104735235,
                "address": "Av. Viale 401",
                "tel": "03364430050"
              },
              {
                "id": "6",
                "name": "San Nicolas",
                "lat": -33.34476855830512,
                "lon": -60.2054229470632,
                "address": "Cochabamba 357",
                "tel": ""
              }
            ]
          ]
        },
        {
          "dia": 9,
          "dateShift": "d",
          "mes": "Febrero",
          "pharmacies": [
            [
              {
                "id": "1",
                "name": "Boffa",
                "lat": -33.35386710132978,
                "lon": -60.19665060473372,
                "address": "Av. Savio 1142",
                "tel": "03364451628"
              },
              {
                "id": "2",
                "name": "Cej",
                "lat": -33.34204348639081,
                "lon": -60.20894950288566,
                "address": "Maipú 495",
                "tel": "03364430391"
              },
              {
                "id": "3",
                "name": "De Los Arroyos",
                "lat": -33.32916183927236,
                "lon": -60.21570200473506,
                "address": "Nación 102",
                "tel": "03364423130"
              },
              {
                "id": "4",
                "name": "Lombardi",
                "lat": -33.33400345367174,
                "lon": -60.23014073357039,
                "address": "Av. Alberdi 548",
                "tel": "03364436606"
              },
              {
                "id": "5",
                "name": "Porta",
                "lat": -33.338506661084516,
                "lon": -60.219263306583315,
                "address": "Av. Savio 147",
                "tel": "03364459244"
              },
              {
                "id": "6",
                "name": "Romero",
                "lat": -33.356978430137346,
                "lon": -60.24538267589811,
                "address": "Pte. Perón 1648",
                "tel": "03364443073"
              }
            ]
          ]
        },
        {
          "dia": 10,
          "dateShift": "ef",
          "mes": "Febrero",
          "pharmacies": [
            null
          ]
        },
        {
          "dia": 11,
          "dateShift": "f",
          "mes": "Febrero",
          "pharmacies": [
            [
              {
                "id": "1",
                "name": "Cantondebat",
                "lat": -33.35055010878087,
                "lon": -60.213401135418216,
                "address": "Brown 598",
                "tel": ""
              },
              {
                "id": "2",
                "name": "Cavara",
                "lat": -33.33570727517761,
                "lon": -60.20832214521492,
                "address": "Italia Y Necochea",
                "tel": "03364436204"
              },
              {
                "id": "3",
                "name": "Fenix",
                "lat": -33.33426894452214,
                "lon": -60.21697324704747,
                "address": "Garibaldi 281",
                "tel": "03364423117"
              },
              {
                "id": "4",
                "name": "Frattini",
                "lat": -33.33443759070356,
                "lon": -60.22511569124136,
                "address": "Av. Moreno 108",
                "tel": ""
              },
              {
                "id": "5",
                "name": "Prat",
                "lat": -33.34953240647645,
                "lon": -60.235944977747174,
                "address": "Pte Perón 1093",
                "tel": "03364441803"
              },
              {
                "id": "6",
                "name": "Zonta",
                "lat": -33.324212854979265,
                "lon": -60.22765330658413,
                "address": "Urquiza 422",
                "tel": "03364429885"
              }
            ]
          ]
        },
        {
          "dia": 12,
          "dateShift": "g",
          "mes": "Febrero",
          "pharmacies": [
            [
              {
                "id": "1",
                "name": "Barbotti",
                "lat": -33.33873459232787,
                "lon": -60.21124080473454,
                "address": "Bolivar y Necochea",
                "tel": "03364452228"
              },
              {
                "id": "2",
                "name": "Brasesco",
                "lat": -33.35593551366345,
                "lon": -60.19359378939154,
                "address": "Av. Savio y Pombo",
                "tel": "03364424768"
              },
              {
                "id": "3",
                "name": "Cesari",
                "lat": -33.330753440513476,
                "lon": -60.21739346240608,
                "address": "Nacion 183",
                "tel": "03364427258"
              },
              {
                "id": "4",
                "name": "Conde",
                "lat": -33.340982587119136,
                "lon": -60.22739727589888,
                "address": "Nacion 701",
                "tel": "03364422389"
              },
              {
                "id": "5",
                "name": "Garaguso",
                "lat": -33.3317777302354,
                "lon": -60.22213790473496,
                "address": "Belgrano 320",
                "tel": "03364619164"
              },
              {
                "id": "6",
                "name": "Prina",
                "lat": -33.31491275949685,
                "lon": -60.233554777749006,
                "address": "Av. Arturo Illia 739",
                "tel": "03364453776"
              }
            ]
          ]
        },
        {
          "dia": 13,
          "dateShift": "h",
          "mes": "Febrero",
          "pharmacies": [
            [
              {
                "id": "1",
                "name": "Blanco",
                "lat": -33.34148881416284,
                "lon": -60.20426796240662,
                "address": "Benítez 235",
                "tel": "03364420843"
              },
              {
                "id": "2",
                "name": "Correa",
                "lat": -33.330612040316296,
                "lon": -60.2158215335718,
                "address": "Italia 38",
                "tel": "03364428203"
              },
              {
                "id": "3",
                "name": "Donatelli",
                "lat": -33.322809245979805,
                "lon": -60.22935914891361,
                "address": "Urquiza 499",
                "tel": "0346115430017"
              },
              {
                "id": "4",
                "name": "Gagliardo",
                "lat": -33.347558810802354,
                "lon": -60.23382082534601,
                "address": "Pte Perón 1035",
                "tel": ""
              },
              {
                "id": "5",
                "name": "Salvador",
                "lat": -33.33251775697814,
                "lon": -60.22769900473631,
                "address": "Av. Moreno 220",
                "tel": "03364435180"
              },
              {
                "id": "6",
                "name": "Tioni",
                "lat": -33.35676244560224,
                "lon": -60.19771082007639,
                "address": "Rademil y Alvear",
                "tel": "03364434809"
              },
              {
                "id": "7",
                "name": "Farias",
                "lat": -33.339563741870556,
                "lon": -60.217026247065185,
                "address": "Av. Savio 238",
                "tel": "03364437501"
              }
            ]
          ]
        },
        {
          "dia": 14,
          "dateShift": "i",
          "mes": "Febrero",
          "pharmacies": [
            [
              {
                "id": "1",
                "name": "Alonso",
                "lat": -33.33594800276067,
                "lon": -60.22021219124219,
                "address": "Don Bosco y Pellegrini",
                "tel": "03364437687"
              },
              {
                "id": "2",
                "name": "Ciminari",
                "lat": -33.336648186952836,
                "lon": -60.23329622007746,
                "address": "Av. Alberdi 699",
                "tel": ""
              },
              {
                "id": "3",
                "name": "Garcia",
                "lat": -33.3291283676118,
                "lon": -60.21951941823045,
                "address": "Belgrano 184",
                "tel": "03364422324"
              },
              {
                "id": "4",
                "name": "Gomez",
                "lat": -33.35361026252686,
                "lon": -60.241862447064385,
                "address": "Pte. Perón 1366",
                "tel": "03364440633"
              },
              {
                "id": "5",
                "name": "Leone",
                "lat": -33.34974216904613,
                "lon": -60.19571403357069,
                "address": "Bolívar 1053",
                "tel": "03364431766"
              },
              {
                "id": "6",
                "name": "Pza. Sarmiento",
                "lat": -33.33237693152177,
                "lon": -60.21106883357172,
                "address": "España y Rivadavia",
                "tel": ""
              }
            ]
          ]
        },
        {
          "dia": 15,
          "dateShift": "j",
          "mes": "Febrero",
          "pharmacies": [
            [
              {
                "id": "1",
                "name": "Alluchon",
                "lat": -33.3339826261711,
                "lon": -60.22272904706558,
                "address": "Olleros 55",
                "tel": "03364430164"
              },
              {
                "id": "2",
                "name": "Bongiorno",
                "lat": -33.3261824245605,
                "lon": -60.222277218230644,
                "address": "Francia y Av. Alberdi",
                "tel": "03364424936"
              },
              {
                "id": "3",
                "name": "Bracco",
                "lat": -33.34215748977071,
                "lon": -60.21384954706507,
                "address": "Av. Savio 373",
                "tel": "03364424389"
              },
              {
                "id": "4",
                "name": "Floreani",
                "lat": -33.329698921086745,
                "lon": -60.2124703423293,
                "address": "Garibaldi y Alem",
                "tel": ""
              },
              {
                "id": "5",
                "name": "Pinasco",
                "lat": -33.33961558401627,
                "lon": -60.22223777590062,
                "address": "Alvear 95",
                "tel": "03364421261"
              },
              {
                "id": "6",
                "name": "Prado",
                "lat": -33.34342090058382,
                "lon": -60.19594055582323,
                "address": "M. Cernadas 110",
                "tel": "03364439209"
              }
            ]
          ]
        },
        {
          "dia": 16,
          "dateShift": "k",
          "mes": "Febrero",
          "pharmacies": [
            [
              {
                "id": "1",
                "name": "Andrada",
                "lat": -33.346015148456274,
                "lon": -60.20826593172356,
                "address": "Av. Savio 601",
                "tel": "33644452855"
              },
              {
                "id": "2",
                "name": "Ma. Inés Lopez",
                "lat": -33.32584631741433,
                "lon": -60.220503591242775,
                "address": "L. Guruciaga 103",
                "tel": "03364420142"
              },
              {
                "id": "3",
                "name": "Martinelli",
                "lat": -33.30760644584409,
                "lon": -60.24594672007921,
                "address": "Av. Pte. Illia Nº 1127",
                "tel": ""
              },
              {
                "id": "4",
                "name": "Palau",
                "lat": -33.381217184264806,
                "lon": -60.17691486931719,
                "address": "Av. Central 2215",
                "tel": "03364462030"
              },
              {
                "id": "5",
                "name": "Radium",
                "lat": -33.334118807864,
                "lon": -60.220428004736256,
                "address": "Nación 352",
                "tel": "03364422327"
              },
              {
                "id": "6",
                "name": "Tonello",
                "lat": -33.345026071091006,
                "lon": -60.21977994891237,
                "address": "Av. Falcón 651",
                "tel": "03364139497"
              }
            ]
          ]
        },
        {
          "dia": 17,
          "dateShift": "l",
          "mes": "Febrero",
          "pharmacies": [
            [
              {
                "id": "1",
                "name": "Baroni",
                "lat": -33.375773431629916,
                "lon": -60.206423542329276,
                "address": "Av. Irigoyen 1272 (Bº Avamba'e)",
                "tel": ""
              },
              {
                "id": "2",
                "name": "Capra",
                "lat": -33.3282923654617,
                "lon": -60.23377166240725,
                "address": "Av. Moreno 466",
                "tel": "03364433606"
              },
              {
                "id": "3",
                "name": "Hegouaburu",
                "lat": -33.33816751744502,
                "lon": -60.22673372007739,
                "address": "Mitre y Lamadrid",
                "tel": "03364426551"
              },
              {
                "id": "4",
                "name": "Maccaroni",
                "lat": -33.34809535230986,
                "lon": -60.2054570335707,
                "address": "Av. Savio 725",
                "tel": "0336154537811"
              },
              {
                "id": "5",
                "name": "Menna",
                "lat": -33.33745478902769,
                "lon": -60.20402252007743,
                "address": "Rivadavia 501",
                "tel": "03364437078"
              },
              {
                "id": "6",
                "name": "Pucciarelli",
                "lat": -33.32898319571259,
                "lon": -60.22135454891328,
                "address": "Lavalle 215 bis",
                "tel": "03364422016"
              }
            ]
          ]
        },
        {
          "dia": 18,
          "dateShift": "a",
          "mes": "Febrero",
          "pharmacies": [
            [
              {
                "id": "1",
                "name": "Armellini",
                "lat": -33.386941417345604,
                "lon": -60.1757641775202,
                "address": "Av. Central Malvinas Argentinas 3105",
                "tel": "03364462060"
              },
              {
                "id": "2",
                "name": "Cabrera",
                "lat": -33.33655176747358,
                "lon": -60.21076250473463,
                "address": "Av. Falcón 222",
                "tel": ""
              },
              {
                "id": "3",
                "name": "Diamante",
                "lat": -33.34041056512958,
                "lon": -60.230896722537636,
                "address": "Belgrano y Albarez",
                "tel": "03364426161"
              },
              {
                "id": "4",
                "name": "Furlan",
                "lat": -33.32788406441988,
                "lon": -60.224821148912916,
                "address": "9 de Julio 260",
                "tel": "03364435036"
              },
              {
                "id": "5",
                "name": "Gonzalez Pacin",
                "lat": -33.33341236133698,
                "lon": -60.21976489309024,
                "address": "Nacion 314",
                "tel": "03364425294"
              },
              {
                "id": "6",
                "name": "Hector Lopez",
                "lat": -33.34691310054558,
                "lon": -60.201602491240784,
                "address": "Maipú 794",
                "tel": ""
              }
            ]
          ]
        },
        {
          "dia": 19,
          "dateShift": "b",
          "mes": "Febrero",
          "pharmacies": [
            [
              {
                "id": "1",
                "name": "Carrera",
                "lat": -33.33527550138496,
                "lon": -60.21376893357031,
                "address": "Almafuerte y España",
                "tel": ""
              },
              {
                "id": "2",
                "name": "Coccaro",
                "lat": -33.34474852087967,
                "lon": -60.19377664891196,
                "address": "Rivadavia 987 Bis",
                "tel": "03364450202"
              },
              {
                "id": "3",
                "name": "Del Pueblo",
                "lat": -33.33596684872637,
                "lon": -60.222195275899224,
                "address": "Nacion 450",
                "tel": "03364425552"
              },
              {
                "id": "4",
                "name": "Dotto",
                "lat": -33.34457735789202,
                "lon": -60.21517806240539,
                "address": "Pringles y Alvear",
                "tel": ""
              },
              {
                "id": "5",
                "name": "Melone",
                "lat": -33.34419558241745,
                "lon": -60.2302618624053,
                "address": "Pte. Perón 858",
                "tel": "03364441989"
              },
              {
                "id": "6",
                "name": "Taljame",
                "lat": -33.32988423370772,
                "lon": -60.226030860557444,
                "address": "Av. Alberdi 346",
                "tel": "03364426672"
              }
            ]
          ]
        },
        {
          "dia": 20,
          "dateShift": "c",
          "mes": "Febrero",
          "pharmacies": [
            [
              {
                "id": "1",
                "name": "Amefarma",
                "lat": -33.33026605518724,
                "lon": -60.21862980473507,
                "address": "Mitre 200",
                "tel": "03364425920"
              },
              {
                "id": "2",
                "name": "Garetto",
                "lat": -33.34521879728404,
                "lon": -60.22341908939211,
                "address": "Av Morteo y España",
                "tel": "03364424849"
              },
              {
                "id": "3",
                "name": "Liliana Latorre",
                "lat": -33.336248827222235,
                "lon": -60.21697028440585,
                "address": "Ameghino 347",
                "tel": ""
              },
              {
                "id": "4",
                "name": "Ponce",
                "lat": -33.368253649871356,
                "lon": -60.19906733356849,
                "address": "Juramento 1445",
                "tel": "03364572034"
              },
              {
                "id": "5",
                "name": "Rasetto",
                "lat": -33.326447425222845,
                "lon": -60.233922104735235,
                "address": "Av. Viale 401",
                "tel": "03364430050"
              },
              {
                "id": "6",
                "name": "San Nicolas",
                "lat": -33.34476855830512,
                "lon": -60.2054229470632,
                "address": "Cochabamba 357",
                "tel": ""
              }
            ]
          ]
        },
        {
          "dia": 21,
          "dateShift": "d",
          "mes": "Febrero",
          "pharmacies": [
            [
              {
                "id": "1",
                "name": "Boffa",
                "lat": -33.35386710132978,
                "lon": -60.19665060473372,
                "address": "Av. Savio 1142",
                "tel": "03364451628"
              },
              {
                "id": "2",
                "name": "Cej",
                "lat": -33.34204348639081,
                "lon": -60.20894950288566,
                "address": "Maipú 495",
                "tel": "03364430391"
              },
              {
                "id": "3",
                "name": "De Los Arroyos",
                "lat": -33.32916183927236,
                "lon": -60.21570200473506,
                "address": "Nación 102",
                "tel": "03364423130"
              },
              {
                "id": "4",
                "name": "Lombardi",
                "lat": -33.33400345367174,
                "lon": -60.23014073357039,
                "address": "Av. Alberdi 548",
                "tel": "03364436606"
              },
              {
                "id": "5",
                "name": "Porta",
                "lat": -33.338506661084516,
                "lon": -60.219263306583315,
                "address": "Av. Savio 147",
                "tel": "03364459244"
              },
              {
                "id": "6",
                "name": "Romero",
                "lat": -33.356978430137346,
                "lon": -60.24538267589811,
                "address": "Pte. Perón 1648",
                "tel": "03364443073"
              }
            ]
          ]
        },
        {
          "dia": 22,
          "dateShift": "f",
          "mes": "Febrero",
          "pharmacies": [
            [
              {
                "id": "1",
                "name": "Cantondebat",
                "lat": -33.35055010878087,
                "lon": -60.213401135418216,
                "address": "Brown 598",
                "tel": ""
              },
              {
                "id": "2",
                "name": "Cavara",
                "lat": -33.33570727517761,
                "lon": -60.20832214521492,
                "address": "Italia Y Necochea",
                "tel": "03364436204"
              },
              {
                "id": "3",
                "name": "Fenix",
                "lat": -33.33426894452214,
                "lon": -60.21697324704747,
                "address": "Garibaldi 281",
                "tel": "03364423117"
              },
              {
                "id": "4",
                "name": "Frattini",
                "lat": -33.33443759070356,
                "lon": -60.22511569124136,
                "address": "Av. Moreno 108",
                "tel": ""
              },
              {
                "id": "5",
                "name": "Prat",
                "lat": -33.34953240647645,
                "lon": -60.235944977747174,
                "address": "Pte Perón 1093",
                "tel": "03364441803"
              },
              {
                "id": "6",
                "name": "Zonta",
                "lat": -33.324212854979265,
                "lon": -60.22765330658413,
                "address": "Urquiza 422",
                "tel": "03364429885"
              }
            ]
          ]
        },
        {
          "dia": 23,
          "dateShift": "g",
          "mes": "Febrero",
          "pharmacies": [
            [
              {
                "id": "1",
                "name": "Barbotti",
                "lat": -33.33873459232787,
                "lon": -60.21124080473454,
                "address": "Bolivar y Necochea",
                "tel": "03364452228"
              },
              {
                "id": "2",
                "name": "Brasesco",
                "lat": -33.35593551366345,
                "lon": -60.19359378939154,
                "address": "Av. Savio y Pombo",
                "tel": "03364424768"
              },
              {
                "id": "3",
                "name": "Cesari",
                "lat": -33.330753440513476,
                "lon": -60.21739346240608,
                "address": "Nacion 183",
                "tel": "03364427258"
              },
              {
                "id": "4",
                "name": "Conde",
                "lat": -33.340982587119136,
                "lon": -60.22739727589888,
                "address": "Nacion 701",
                "tel": "03364422389"
              },
              {
                "id": "5",
                "name": "Garaguso",
                "lat": -33.3317777302354,
                "lon": -60.22213790473496,
                "address": "Belgrano 320",
                "tel": "03364619164"
              },
              {
                "id": "6",
                "name": "Prina",
                "lat": -33.31491275949685,
                "lon": -60.233554777749006,
                "address": "Av. Arturo Illia 739",
                "tel": "03364453776"
              }
            ]
          ]
        },
        {
          "dia": 24,
          "dateShift": "h",
          "mes": "Febrero",
          "pharmacies": [
            [
              {
                "id": "1",
                "name": "Blanco",
                "lat": -33.34148881416284,
                "lon": -60.20426796240662,
                "address": "Benítez 235",
                "tel": "03364420843"
              },
              {
                "id": "2",
                "name": "Correa",
                "lat": -33.330612040316296,
                "lon": -60.2158215335718,
                "address": "Italia 38",
                "tel": "03364428203"
              },
              {
                "id": "3",
                "name": "Donatelli",
                "lat": -33.322809245979805,
                "lon": -60.22935914891361,
                "address": "Urquiza 499",
                "tel": "0346115430017"
              },
              {
                "id": "4",
                "name": "Gagliardo",
                "lat": -33.347558810802354,
                "lon": -60.23382082534601,
                "address": "Pte Perón 1035",
                "tel": ""
              },
              {
                "id": "5",
                "name": "Salvador",
                "lat": -33.33251775697814,
                "lon": -60.22769900473631,
                "address": "Av. Moreno 220",
                "tel": "03364435180"
              },
              {
                "id": "6",
                "name": "Tioni",
                "lat": -33.35676244560224,
                "lon": -60.19771082007639,
                "address": "Rademil y Alvear",
                "tel": "03364434809"
              },
              {
                "id": "7",
                "name": "Farias",
                "lat": -33.339563741870556,
                "lon": -60.217026247065185,
                "address": "Av. Savio 238",
                "tel": "03364437501"
              }
            ]
          ]
        },
        {
          "dia": 25,
          "dateShift": "i",
          "mes": "Febrero",
          "pharmacies": [
            [
              {
                "id": "1",
                "name": "Alonso",
                "lat": -33.33594800276067,
                "lon": -60.22021219124219,
                "address": "Don Bosco y Pellegrini",
                "tel": "03364437687"
              },
              {
                "id": "2",
                "name": "Ciminari",
                "lat": -33.336648186952836,
                "lon": -60.23329622007746,
                "address": "Av. Alberdi 699",
                "tel": ""
              },
              {
                "id": "3",
                "name": "Garcia",
                "lat": -33.3291283676118,
                "lon": -60.21951941823045,
                "address": "Belgrano 184",
                "tel": "03364422324"
              },
              {
                "id": "4",
                "name": "Gomez",
                "lat": -33.35361026252686,
                "lon": -60.241862447064385,
                "address": "Pte. Perón 1366",
                "tel": "03364440633"
              },
              {
                "id": "5",
                "name": "Leone",
                "lat": -33.34974216904613,
                "lon": -60.19571403357069,
                "address": "Bolívar 1053",
                "tel": "03364431766"
              },
              {
                "id": "6",
                "name": "Pza. Sarmiento",
                "lat": -33.33237693152177,
                "lon": -60.21106883357172,
                "address": "España y Rivadavia",
                "tel": ""
              }
            ]
          ]
        },
        {
          "dia": 26,
          "dateShift": "j",
          "mes": "Febrero",
          "pharmacies": [
            [
              {
                "id": "1",
                "name": "Alluchon",
                "lat": -33.3339826261711,
                "lon": -60.22272904706558,
                "address": "Olleros 55",
                "tel": "03364430164"
              },
              {
                "id": "2",
                "name": "Bongiorno",
                "lat": -33.3261824245605,
                "lon": -60.222277218230644,
                "address": "Francia y Av. Alberdi",
                "tel": "03364424936"
              },
              {
                "id": "3",
                "name": "Bracco",
                "lat": -33.34215748977071,
                "lon": -60.21384954706507,
                "address": "Av. Savio 373",
                "tel": "03364424389"
              },
              {
                "id": "4",
                "name": "Floreani",
                "lat": -33.329698921086745,
                "lon": -60.2124703423293,
                "address": "Garibaldi y Alem",
                "tel": ""
              },
              {
                "id": "5",
                "name": "Pinasco",
                "lat": -33.33961558401627,
                "lon": -60.22223777590062,
                "address": "Alvear 95",
                "tel": "03364421261"
              },
              {
                "id": "6",
                "name": "Prado",
                "lat": -33.34342090058382,
                "lon": -60.19594055582323,
                "address": "M. Cernadas 110",
                "tel": "03364439209"
              }
            ]
          ]
        },
        {
          "dia": 27,
          "dateShift": "k",
          "mes": "Febrero",
          "pharmacies": [
            [
              {
                "id": "1",
                "name": "Andrada",
                "lat": -33.346015148456274,
                "lon": -60.20826593172356,
                "address": "Av. Savio 601",
                "tel": "33644452855"
              },
              {
                "id": "2",
                "name": "Ma. Inés Lopez",
                "lat": -33.32584631741433,
                "lon": -60.220503591242775,
                "address": "L. Guruciaga 103",
                "tel": "03364420142"
              },
              {
                "id": "3",
                "name": "Martinelli",
                "lat": -33.30760644584409,
                "lon": -60.24594672007921,
                "address": "Av. Pte. Illia Nº 1127",
                "tel": ""
              },
              {
                "id": "4",
                "name": "Palau",
                "lat": -33.381217184264806,
                "lon": -60.17691486931719,
                "address": "Av. Central 2215",
                "tel": "03364462030"
              },